[{"Properties":[{"Id":"PS32451204","BuildingId":"1860000910105000000000000","SalesCount":2,"From":"Vestvågøy Kommune","To":"R&r Eiendom As","Type":"Bolig","SaleType":"Uoppgitt","Title":"Folkneset 6, 8360 Bøstad","Price":482000,"PriceF":"482 000","Text":"Eiendommen (Gnr 91, bnr 105) har vært del av en annen overdragelse (Folkneset 2 - Gnr 91, bnr 103)","SubTexts":[],"SoldDate":"22.01.2020","SortableDate":"2020-01-22T00:00:00","Address":"Folkneset 6","PostCode":"8360","PostArea":"Bøstad","Coordinate":{"Lat":68.2591245,"Lon":13.7905057,"LatitudeString":"68.2591245","LongitudeString":"13.7905057"},"Object":"Gnr 91 - Bnr 105","Gnr":"91","Bnr":"105","PartOf":false,"IsPartOfSaleOnBuildingId":"1860000910103000000000000","PropertyType":"Ubebygget","Fnr":"","Snr":"","ShareNumber":null}],"Ads":null,"Billable":true},
{"Properties":[{"Id":"PS23908796","BuildingId":"1860000910096000000000000","SalesCount":1,"From":null,"To":"Vestvågøy Kommune","Type":"Annen anv. av grunn","SaleType":"Uoppgitt","Title":"Folkneset 9, 8360 Bøstad","Price":480000,"PriceF":"480 000","Text":"Eiendommen (Gnr 91, bnr 96) har vært del av en annen overdragelse (Hovdveien 110 - Gnr 91, bnr 58)","SubTexts":[],"SoldDate":"16.12.1987","SortableDate":"1987-12-16T00:00:00","Address":"Folkneset 9","PostCode":"8360","PostArea":"Bøstad","Coordinate":{"Lat":68.259853,"Lon":13.7907575,"LatitudeString":"68.259853","LongitudeString":"13.7907575"},"Object":"Gnr 91 - Bnr 96","Gnr":"91","Bnr":"96","PartOf":false,"IsPartOfSaleOnBuildingId":"1860000910058000000000000","PropertyType":"Annen bygning.","Fnr":"","Snr":"","ShareNumber":null}],"Ads":null,"Billable":false},
{"Properties":[{"Id":"PS32451205","BuildingId":"1860000910106000000000000","SalesCount":2,"From":"Vestvågøy Kommune","To":"R&r Eiendom As","Type":"Bolig","SaleType":"Uoppgitt","Title":"Folkneset 4, 8360 Bøstad","Price":482000,"PriceF":"482 000","Text":"Eiendommen (Gnr 91, bnr 106) har vært del av en annen overdragelse (Folkneset 2 - Gnr 91, bnr 103)","SubTexts":[],"SoldDate":"22.01.2020","SortableDate":"2020-01-22T00:00:00","Address":"Folkneset 4","PostCode":"8360","PostArea":"Bøstad","Coordinate":{"Lat":68.2592283,"Lon":13.7912019,"LatitudeString":"68.2592283","LongitudeString":"13.7912019"},"Object":"Gnr 91 - Bnr 106","Gnr":"91","Bnr":"106","PartOf":false,"IsPartOfSaleOnBuildingId":"1860000910103000000000000","PropertyType":"Ubebygget","Fnr":"","Snr":"","ShareNumber":null}],"Ads":null,"Billable":true},
{"Properties":[{"Id":"PS32676040","BuildingId":"1860000200007000000000000","SalesCount":4,"From":"Marita Andersen,Rose-Mari Andersen","To":"Jens Roger Bolle Andersen","Type":"Landbruk/fiske","SaleType":"Annen omsetningstype","Title":"Bolleveien 183, 8370 Leknes","Price":1,"PriceF":"1","Text":"Eiendommen (Gnr 20, bnr 7) har vært del av en annen overdragelse ( - Gnr 1, bnr 20)","SubTexts":[],"SoldDate":"02.01.2020","SortableDate":"2020-01-02T00:00:00","Address":"Bolleveien 183","PostCode":"8370","PostArea":"Leknes","Coordinate":{"Lat":68.1638484,"Lon":13.5864201,"LatitudeString":"68.1638484","LongitudeString":"13.5864201"},"Object":"Gnr 20 - Bnr 7","Gnr":"20","Bnr":"7","PartOf":false,"IsPartOfSaleOnBuildingId":"1860000010020000000000000","PropertyType":"Frittliggende bolig","Fnr":"","Snr":"","ShareNumber":null}],"Ads":null,"Billable":true},
{"Properties":[{"Id":"PS25252558","BuildingId":"1860001150018000000000000","SalesCount":4,"From":"Ann Kristin Magnussen,Kai Reidar Magnussen","To":"Ørjan Magnussen","Type":"Landbruk/fiske","SaleType":"Fritt salg","Title":"Haverringen 1718, 8360 Bøstad","Price":1293333,"PriceF":"1 293 333","Text":"Eiendommen (Gnr 115, bnr 18) har vært del av et annet salg ( - Gnr 115, bnr 5)","SubTexts":[],"SoldDate":"07.11.2019","SortableDate":"2019-11-07T00:00:00","Address":"Haverringen 1718","PostCode":"8360","PostArea":"Bøstad","Coordinate":{"Lat":68.275726,"Lon":13.9802995,"LatitudeString":"68.275726","LongitudeString":"13.9802995"},"Object":"Gnr 115 - Bnr 18","Gnr":"115","Bnr":"18","PartOf":false,"IsPartOfSaleOnBuildingId":"1860001150005000000000000","PropertyType":"Frittliggende bolig","Fnr":"","Snr":"","ShareNumber":null}],"Ads":null,"Billable":true},
{"Properties":[{"Id":"PS25157446","BuildingId":"1860000960003000000000000","SalesCount":4,"From":"Liv K Friksen Laumann","To":"Ann Karin Elvebakken,Geir Roger Elvebakken","Type":"Bolig","SaleType":"Fritt salg","Title":"Vendalsjorden 47, 8360 Bøstad","Price":1450000,"PriceF":"1 450 000","Text":"Eiendommen (Gnr 96, bnr 3) har vært del av et annet salg (Pollveien 496 - Gnr 96, bnr 2)","SubTexts":[],"SoldDate":"10.09.2019","SortableDate":"2019-09-10T00:00:00","Address":"Vendalsjorden 47","PostCode":"8360","PostArea":"Bøstad","Coordinate":{"Lat":68.2308295,"Lon":13.8600014,"LatitudeString":"68.2308295","LongitudeString":"13.8600014"},"Object":"Gnr 96 - Bnr 3","Gnr":"96","Bnr":"3","PartOf":false,"IsPartOfSaleOnBuildingId":"1860000960002000000000000","PropertyType":"Frittliggende bolig","Fnr":"","Snr":"","ShareNumber":null}],"Ads":null,"Billable":true},
{"Properties":[{"Id":"PS25155787","BuildingId":"1860000160001004700000000","SalesCount":4,"From":"Ketil Utne Finstad-Steira","To":"Lofoten Islands As","Type":"Bolig","SaleType":"Fritt salg","Title":"Gravdalsgata 14, 8372 Gravdal","Price":3000000,"PriceF":"3 000 000","Text":"Eiendommen (Gnr 16, bnr 1) har vært del av et annet salg ( - Gnr 16, bnr 1)","SubTexts":[],"SoldDate":"09.09.2019","SortableDate":"2019-09-09T00:00:00","Address":"Gravdalsgata 14","PostCode":"8372","PostArea":"Gravdal","Coordinate":{"Lat":68.1201829,"Lon":13.5446792,"LatitudeString":"68.1201829","LongitudeString":"13.5446792"},"Object":"Gnr 16 - Bnr 1 - Fnr 47","Gnr":"16","Bnr":"1","PartOf":false,"IsPartOfSaleOnBuildingId":"1860000160001003800000000","PropertyType":"Blokkleilighet","Fnr":"47","Snr":"","ShareNumber":null}],"Ads":null,"Billable":true},
{"Properties":[{"Id":"PS25139157","BuildingId":"1860000020364000000000000","SalesCount":2,"From":"Vestvågøy Kommune","To":"Arturas Zvezdovas,Olga Kacanova","Type":"Bolig","SaleType":"Fritt salg","Title":"Haugsongelen 23, 8372 Gravdal","Price":210000,"PriceF":"210 000","Text":"Eiendommen (Gnr 2, bnr 364) har vært del av et annet salg (Haugsongelen 21 - Gnr 2, bnr 361)","SubTexts":[],"SoldDate":"28.08.2019","SortableDate":"2019-08-28T00:00:00","Address":"Haugsongelen 23","PostCode":"8372","PostArea":"Gravdal","Coordinate":{"Lat":68.1259825,"Lon":13.5400544,"LatitudeString":"68.1259825","LongitudeString":"13.5400544"},"Object":"Gnr 2 - Bnr 364","Gnr":"2","Bnr":"364","PartOf":false,"IsPartOfSaleOnBuildingId":"1860000020361000000000000","PropertyType":"Ubebygget","Fnr":"","Snr":"","ShareNumber":null}],"Ads":null,"Billable":true},
{"Properties":[{"Id":"PS25096238","BuildingId":"1860000220022000000000000","SalesCount":5,"From":"Eiolf R Lasse Pettersen, Jan Geir Pettersen, Stig Magne Pettersen,Tove Pettersen Bjørstad","To":"Khan Rahim Aga","Type":"Fritidseiendom","SaleType":"Fritt salg","Title":"Offersøyveien 45, 8370 Leknes","Price":3500000,"PriceF":"3 500 000","Text":"Eiendommen (Gnr 22, bnr 22) har vært del av et annet salg ( - Gnr 22, bnr 13)","SubTexts":[],"SoldDate":"24.07.2019","SortableDate":"2019-07-24T00:00:00","Address":"Offersøyveien 45","PostCode":"8370","PostArea":"Leknes","Coordinate":{"Lat":68.1552771,"Lon":13.5262463,"LatitudeString":"68.1552771","LongitudeString":"13.5262463"},"Object":"Gnr 22 - Bnr 22","Gnr":"22","Bnr":"22","PartOf":false,"IsPartOfSaleOnBuildingId":"1860000220013000000000000","PropertyType":"Annen bygning.","Fnr":"","Snr":"","ShareNumber":null}],"Ads":null,"Billable":true},
{"Properties":[{"Id":"PS21873198","BuildingId":"1860000100256000000000000","SalesCount":2,"From":"Harald Konrad Nilsen","To":"Hemmingodden As","Type":"Forretning/kontor","SaleType":"Fritt salg","Title":"Oppsåttveien 10, 8373 Ballstad","Price":3000000,"PriceF":"3 000 000","Text":"Eiendommen (Gnr 10, bnr 256) har vært del av et annet salg (Oppsåttveien 12 - Gnr 10, bnr 167)","SubTexts":[],"SoldDate":"19.06.2019","SortableDate":"2019-06-19T00:00:00","Address":"Oppsåttveien 10","PostCode":"8373","PostArea":"Ballstad","Coordinate":{"Lat":68.0734356,"Lon":13.5357941,"LatitudeString":"68.0734356","LongitudeString":"13.5357941"},"Object":"Gnr 10 - Bnr 256","Gnr":"10","Bnr":"256","PartOf":false,"IsPartOfSaleOnBuildingId":"1860000100167000000000000","PropertyType":"Uoppgitt","Fnr":"","Snr":"","ShareNumber":null}],"Ads":null,"Billable":true},
{"Properties":[{"Id":"PS21807071","BuildingId":"1860000520233000000000000","SalesCount":6,"From":"Gry Elin Holmen Jensen","To":"Børre John Hansen","Type":"Fritidseiendom","SaleType":"Ukjent","Title":"J.M.Johansens vei 148, 8340 Stamsund","Price":165263,"PriceF":"165 263","Text":"Andel av J.M.Johansens vei 148 (Gnr 52, bnr 233) er overdratt for kr 165.263 (25.04.2019)","SubTexts":["e.d. i Vågan kommune"],"SoldDate":"25.04.2019","SortableDate":"2019-04-25T00:00:00","Address":"J.M.Johansens vei 148","PostCode":"8340","PostArea":"Stamsund","Coordinate":{"Lat":68.1297216,"Lon":13.8505757,"LatitudeString":"68.1297216","LongitudeString":"13.8505757"},"Object":"Gnr 52 - Bnr 233","Gnr":"52","Bnr":"233","PartOf":true,"IsPartOfSaleOnBuildingId":null,"PropertyType":"Frittliggende bolig","Fnr":"","Snr":"","ShareNumber":null}],"Ads":null,"Billable":true}

]

